City,Country,Lat,Lng,Date,Max Temp (F),Cloudiness,Humidity,Wind Speed
loei,th,17.42,101.5,1580007262,79.0,70,60,1.12
saint-philippe,re,-21.36,55.77,1580007262,73.4,90,83,9.17
kapaa,us,22.08,-159.32,1580007263,78.8,40,65,6.93
inta,ru,66.03,60.17,1580007263,-9.24,87,99,2.06
mataura,pf,-46.19,168.86,1580007263,77.65,64,58,0.58
castro,cl,-24.79,-50.01,1580007264,61.63,0,93,2.84
yellowknife,ca,62.46,-114.35,1580007264,10.4,90,85,6.93
thompson,ca,55.74,-97.86,1580007202,15.8,90,92,2.24
ewa beach,us,21.32,-158.01,1580007264,82.4,20,65,9.17
vaini,to,-21.2,-175.2,1580007264,80.6,75,88,13.87
russell,nz,32.35,-85.2,1580007265,46.4,1,80,3.36
avera,pf,33.19,-82.53,1580007265,45.0,1,75,8.05
neuquen,ar,-38.95,-68.06,1580007265,80.6,71,32,13.87
belushya guba,ru,71.97,102.5,1580007266,-23.94,22,96,2.64
khatanga,ru,23.83,84.12,1580007266,57.15,0,46,3.0
barwadih,in,20.52,-13.05,1580007205,70.45,100,24,9.01
atar,mr,5.33,103.14,1580007004,80.6,40,83,2.24
kuala terengganu,my,-33.93,18.42,1580007267,60.01,75,87,2.24
cape town,za,5.41,100.34,1580007094,86.0,20,66,6.93
amderma,ru,68.75,161.3,1580007219,-17.93,100,96,2.71
georgetown,sh,73.51,80.55,1580007268,-5.84,100,95,5.39
cherskiy,ru,-53.15,-70.92,1580007268,48.2,75,70,25.28
dikson,ru,-33.02,27.91,1580007268,73.45,38,84,20.69
punta arenas,cl,66.04,-17.34,1580007269,28.4,90,92,10.29
east london,za,47.6,-53.26,1580007269,19.0,5,78,16.11
husavik,is,-15.86,-38.88,1580007269,80.6,90,83,13.87
bay roberts,ca,47.67,-52.73,1580007244,19.0,5,78,16.11
belmonte,br,78.22,15.64,1580007270,1.4,7,54,2.06
nizhneyansk,ru,-54.8,-68.3,1580007055,46.4,75,75,23.04
torbay,ca,69.45,-133.04,1580007270,-13.0,90,75,25.28
longyearbyen,sj,70.63,147.92,1580007197,-22.23,100,86,5.99
ushuaia,ar,47.82,-79.87,1580007271,32.0,90,98,9.17
zhanatas,kz,-38.0,-57.56,1580007271,66.2,0,59,8.05
tuktoyaktuk,ca,-23.85,151.25,1580007271,86.0,75,62,12.75
chokurdakh,ru,-23.12,-134.97,1580007186,79.11,0,77,10.22
englehart,ca,-19.06,-169.92,1580007232,82.4,22,83,9.17
mar del plata,ar,-21.21,-159.78,1580007272,84.2,100,83,11.41
gladstone,au,47.34,5.01,1580007272,32.0,75,100,2.24
rikitea,pf,20.88,-156.68,1580006980,82.4,20,57,14.99
alofi,nu,77.48,-69.36,1580007273,-12.03,55,43,4.43
avarua,ck,-9.8,-139.03,1580007273,80.74,74,77,13.8
talant,fr,71.92,114.08,1580007273,-20.51,99,93,16.46
lahaina,us,61.99,5.14,1580007274,45.0,100,100,24.16
qaanaaq,gl,-35.72,150.18,1580007274,93.99,0,81,1.99
atuona,pf,68.22,-135.01,1580007274,-14.8,90,68,18.34
saskylakh,ru,-5.2,-35.46,1580007274,80.6,75,88,4.7
raudeberg,no,-20.32,118.57,1580007275,105.8,0,11,13.87
batemans bay,au,-20.52,57.52,1580007187,77.0,75,78,11.41
aklavik,ca,65.61,-37.64,1580007275,28.4,100,79,27.51
touros,br,20.89,-156.47,1580007275,82.4,20,57,14.99
port hedland,au,69.49,88.4,1580007276,5.0,75,77,11.18
souillac,mu,41.25,67.97,1580007276,32.97,100,86,4.59
tasiilaq,gl,-22.97,-42.03,1580007005,75.16,0,82,6.76
kahului,us,-42.78,147.06,1580007276,72.0,40,35,18.34
talnakh,ru,59.87,48.01,1580007277,11.7,100,94,7.85
chardara,kz,-34.53,20.04,1580007277,62.6,68,72,18.34
arraial do cabo,br,36.21,57.68,1580007277,32.16,15,70,5.32
new norfolk,au,43.37,-124.22,1580007277,55.99,90,100,4.7
maromitsa,ru,-33.59,26.89,1580007278,66.0,80,98,5.99
bredasdorp,za,32.67,-17.1,1580007278,57.2,20,71,4.7
sabzevar,ir,-0.95,122.79,1580007241,83.3,18,72,5.1
coos bay,us,-3.35,-64.71,1580007278,75.07,85,96,1.9
port alfred,za,30.48,-115.95,1580007279,39.0,0,23,7.0
ponta do sol,cv,40.84,22.78,1580007279,44.01,76,93,3.36
luwuk,id,42.87,-106.31,1580007089,35.6,75,59,14.99
tefe,br,42.6,-73.97,1580007000,39.2,90,100,3.36
san quintin,mx,32.93,10.45,1580007279,57.2,100,41,4.7
mikrokambos,gr,24.69,46.72,1580007280,42.8,0,60,16.11
casper,us,-46.28,169.85,1580007280,68.0,5,65,10.45
albany,au,23.46,116.77,1580007280,57.2,75,100,6.71
tatawin,tn,39.6,-110.81,1580007281,33.01,90,85,3.36
riyadh,sa,47.91,106.88,1580007004,-7.6,0,76,4.36
mys shmidta,ru,-34.42,19.23,1580007193,57.0,83,98,7.0
kaitangata,nz,6.12,81.12,1580007252,77.0,40,88,12.75
chenghai,cn,-0.6,73.08,1580007282,82.49,100,77,9.75
price,us,36.37,6.61,1580007282,41.0,75,75,2.24
ulaanbaatar,mn,19.73,-155.09,1580007194,80.6,90,57,3.36
hermanus,za,37.72,-25.43,1580007282,57.2,40,82,3.36
hambantota,lk,5.35,48.53,1580007004,77.79,100,81,10.33
hithadhoo,mv,42.42,-122.83,1580007263,50.0,90,93,3.09
constantine,dz,50.95,46.97,1580007283,27.82,37,84,17.69
hilo,us,-9.66,120.26,1580007283,83.86,61,74,6.71
vila franca do campo,pt,-30.18,-50.21,1580007192,75.56,74,68,14.32
hobyo,so,-2.92,-39.92,1580007284,77.0,90,95,4.54
jackson,us,54.9,-1.38,1580007284,45.0,75,100,9.17
krasnyy kut,ru,64.84,-147.72,1580007194,-9.99,1,74,6.04
waingapu,id,-10.07,-78.15,1580007285,76.44,100,62,4.16
cidreira,br,26.91,70.92,1580007285,64.92,0,29,8.3
itarema,br,59.7,30.79,1580007286,30.99,20,86,4.47
sunderland,gb,66.32,-179.17,1580007286,-5.75,67,89,4.85
fairbanks,us,57.79,-152.41,1580007192,17.6,90,61,19.46
huarmey,pe,-33.65,115.33,1580007286,91.99,97,29,5.23
jaisalmer,in,65.82,87.98,1580007006,1.63,98,96,5.53
sentyabrskiy,ru,-20.34,57.76,1580007287,77.0,75,78,11.41
saleaula,ws,-0.88,131.25,1580007287,90.16,79,58,3.76
nikolskoye,ru,-6.22,155.63,1580007205,84.7,17,72,8.59
egvekinot,ru,-17.71,-39.25,1580007288,79.09,100,84,19.69
kodiak,us,69.7,170.31,1580007288,-9.44,100,96,0.45
busselton,au,-42.88,147.33,1580007286,72.0,40,35,18.34
turukhansk,ru,55.1,-105.28,1580007288,23.0,90,92,6.93
bambous virieux,mu,3.07,172.79,1580007200,85.51,100,72,9.89
sorong,id,62.23,-6.59,1580007232,44.6,100,93,19.46
kieta,pg,-21.64,-41.05,1580007289,73.27,100,90,5.39
caravelas,br,34.17,77.58,1580007289,-4.67,100,89,4.21
pevek,ru,22.89,-109.91,1580007290,69.01,75,77,3.36
hobart,au,-0.36,42.55,1580007290,80.13,67,88,9.98
la ronge,ca,-12.04,-77.03,1580007267,73.4,75,88,16.11
butaritari,ki,50.72,136.63,1580007291,-3.3,0,91,4.47
klaksvik,fo,26.12,127.67,1580007291,73.4,75,94,14.99
samusu,ws,25.77,73.33,1580007291,64.49,0,36,3.56
sao joao da barra,br,71.29,-156.79,1580007292,-20.2,75,75,9.17
leh,in,32.12,20.07,1580007292,55.08,59,59,17.94
illoqqortoormiut,gl,17.08,122.42,1580007292,76.06,96,83,5.46
cabo san lucas,mx,18.97,-101.82,1580007292,62.6,75,55,4.32
kismayo,so,-0.74,-90.35,1580007293,77.0,54,34,1.01
lima,pe,20.2,1.01,1580007293,71.49,92,11,8.68
tsihombe,mg,64.86,11.24,1580007293,42.01,100,95,27.22
solnechnyy,ru,-19.84,34.84,1580007293,73.4,54,94,4.7
itoman,jp,35.57,53.4,1580007294,31.14,0,57,2.59
pali,in,9.97,-71.15,1580007294,75.87,0,84,1.81
barrow,us,50.68,156.12,1580007279,18.86,100,92,40.24
benghazi,ly,41.37,-73.41,1580007278,46.99,90,100,3.36
dicabisagan,ph,65.99,57.53,1580007295,-10.97,91,100,1.1
la huacana,mx,-15.77,128.73,1580007295,91.4,66,52,1.12
puerto ayora,ec,-15.2,12.15,1580007210,74.68,69,74,12.53
tessalit,ml,58.66,37.26,1580007296,24.85,100,89,10.16
rorvik,no,36.62,-121.92,1580007296,59.0,40,93,6.93
beira,mz,64.18,-51.72,1580007296,14.0,100,72,6.93
yanan,cn,-13.7,-76.22,1580007297,73.4,90,83,17.22
semnan,ir,34.98,139.87,1580007297,42.01,75,93,9.17
bachaquero,ve,60.72,-46.03,1580007297,12.2,89,72,5.82
urdzhar,kz,43.37,23.48,1580007298,42.39,0,77,1.9
severo-kurilsk,ru,64.86,-147.8,1580007298,-9.99,1,74,4.59
bethel,us,35.73,140.83,1580007298,43.0,75,93,8.05
usinsk,ru,70.47,-68.59,1580007298,-23.8,75,67,14.99
kununurra,au,39.89,4.27,1580007299,55.4,70,93,6.93
namibe,ao,-16.78,47.65,1580007299,67.41,98,88,4.61
vesyegonsk,ru,11.0,122.67,1580007299,84.15,31,73,5.21
pacific grove,us,11.28,-15.83,1580007299,77.86,92,70,7.76
nuuk,gl,53.05,158.65,1580007300,28.4,40,68,4.47
pisco,pe,-35.17,173.17,1580007300,69.64,94,84,15.66
tateyama,jp,-37.62,-73.65,1580007207,61.23,0,85,7.78
qaqortoq,gl,43.8,87.6,1580007300,3.2,42,84,2.24
jahrom,ir,71.69,128.87,1580007301,-28.1,0,67,5.19
krivodol,bg,63.44,-20.27,1580007301,33.46,100,96,15.32
college,us,-33.87,121.9,1580007301,80.6,95,44,5.82
hasaki,jp,57.31,88.17,1580007301,15.03,100,92,9.93
clyde river,ca,-33.92,25.57,1580007301,68.0,40,88,21.92
mahon,es,46.42,3.91,1580007302,44.01,100,92,2.21
tsaratanana,mg,-2.67,141.3,1580007302,83.39,61,82,16.02
dingle,ie,58.52,-117.14,1580007302,21.2,90,92,4.7
bubaque,gw,8.87,5.42,1580007302,65.55,5,16,2.48
petropavlovsk-kamchatskiy,ru,47.52,19.75,1580007303,30.99,90,100,4.7
ahipara,nz,6.88,73.1,1580007303,82.02,100,65,4.36
lebu,cl,68.05,166.44,1580007303,-3.91,100,89,5.28
urumqi,cn,33.07,107.03,1580007303,39.88,0,61,3.83
tiksi,ru,68.35,-133.72,1580007191,-14.8,90,68,18.34
vestmannaeyjar,is,-24.87,113.63,1580007070,84.2,13,58,19.46
esperance,au,-6.6,147.87,1580007304,84.49,8,69,1.43
teguldet,ru,-22.67,167.48,1580007304,77.95,91,79,15.61
port elizabeth,za,-15.92,-46.11,1580007305,69.71,79,97,2.77
saint-francois,gp,40.28,97.2,1580007305,20.57,0,61,1.07
vanimo,pg,22.75,108.48,1580007305,50.0,40,71,11.18
high level,ca,-45.87,-67.5,1580007165,73.4,0,35,28.86
lafiagi,ng,20.5,-10.07,1580007306,73.99,100,23,10.58
szentlorinckata,hu,39.05,-27.98,1580007306,57.72,100,65,8.63
dhidhdhoo,mv,-46.6,168.33,1580007306,66.49,57,52,8.52
bilibino,ru,61.75,48.54,1580007307,3.36,100,96,4.5
hanzhong,cn,14.72,-92.42,1580007307,78.8,20,88,2.24
inuvik,ca,-8.93,125.41,1580007307,82.2,48,63,3.29
carnarvon,au,11.67,92.75,1580007233,77.85,78,70,13.78
finschhafen,pg,22.29,114.16,1580007151,62.01,40,87,10.29
vao,nc,-9.43,159.95,1580007308,89.6,20,66,6.93
arinos,br,4.88,-1.76,1580007308,74.59,53,92,1.61
yumen,cn,65.28,-126.83,1580007308,-13.0,20,62,13.87
pumiao,cn,9.35,42.8,1580007309,61.03,100,86,13.82
comodoro rivadavia,ar,20.17,-101.58,1580007309,60.8,75,44,4.7
adrar,dz,-31.41,-64.18,1580007228,82.0,0,68,3.36
taolanaro,mg,-34.0,24.73,1580007309,64.71,89,87,22.73
lagoa,pt,65.58,-171.0,1580007310,-13.47,0,77,3.15
bluff,nz,-27.01,27.36,1580007310,60.89,0,86,6.4
urdoma,ru,48.92,2.33,1580007310,41.0,62,93,3.36
tabiauea,ki,-34.73,135.87,1580007311,74.1,32,54,10.18
puerto madero,mx,9.18,7.18,1580007311,66.78,37,17,3.42
airai,pw,63.05,179.32,1580007311,14.74,100,85,5.86
port blair,in,18.74,7.39,1580007311,64.99,0,11,8.28
victoria,sc,60.14,-45.24,1580007312,23.34,100,75,16.98
honiara,sb,14.92,120.55,1580007312,87.01,75,66,4.7
takoradi,gh,57.05,-135.33,1580007313,46.4,90,70,24.16
norman wells,ca,-22.12,14.28,1580007313,62.01,0,96,2.66
jijiga,et,71.04,27.85,1580007313,18.21,100,76,20.45
villachuato,mx,24.09,32.91,1580007313,46.38,0,78,10.54
cordoba,ar,36.77,-4.1,1580007313,52.0,40,93,3.36
kruisfontein,za,52.18,21.57,1580007314,36.0,90,80,3.36
lavrentiya,ru,64.25,-15.21,1580007224,38.97,82,86,16.04
vredefort,za,42.1,-79.24,1580007314,33.8,90,97,6.93
saint-denis,re,18.45,-100.98,1580007314,76.86,100,47,3.4
nguiu,au,54.43,113.6,1580007315,4.59,60,84,1.63
port lincoln,au,46.08,7.08,1580007315,36.0,46,92,5.82
suleja,ng,20.45,121.97,1580007315,79.38,85,79,18.59
beringovskiy,ru,36.68,-121.66,1580007315,61.0,90,93,4.7
arlit,ne,45.76,106.27,1580007316,15.35,0,67,10.42
louisbourg,ca,6.5,2.6,1580007316,73.4,21,73,4.7
nanortalik,gl,27.98,-114.06,1580007316,62.11,0,78,9.37
lubao,cd,37.08,41.22,1580007316,35.6,0,47,3.36
sumbawa,id,40.6,-124.16,1580007252,59.0,90,87,10.29
sitka,us,-41.41,175.52,1580007317,77.0,31,61,21.92
henties bay,na,32.38,15.09,1580007317,63.91,99,44,13.11
mehamn,no,0.33,-79.47,1580007317,73.6,100,94,1.41
aswan,eg,-20.01,57.66,1580007310,77.0,75,78,11.41
velez-malaga,es,37.1,-113.58,1580007318,55.4,1,54,0.96
minsk mazowiecki,pl,53.45,108.98,1580007318,7.14,100,80,2.44
hofn,is,31.22,29.96,1580007119,50.0,40,87,3.36
jamestown,sh,-0.03,109.33,1580007094,86.0,75,74,3.36
zirandaro,mx,69.41,86.18,1580007319,5.0,75,77,11.18
bagdarin,ru,72.79,-56.15,1580007279,-14.24,100,94,7.61
martigny,ch,-11.1,-77.61,1580007320,74.28,100,71,5.99
basco,ph,-8.58,13.66,1580007320,80.6,40,78,2.24
salinas,mx,-14.41,-56.45,1580007320,73.18,100,92,3.8
mandalgovi,mn,18.9,-3.53,1580007320,75.78,100,9,7.18
porto novo,cv,43.92,46.71,1580007320,34.43,0,69,10.2
guerrero negro,mx,47.8,67.71,1580007321,17.6,90,92,20.13
nusaybin,tr,50.7,-127.42,1580007321,46.4,90,81,23.04
fortuna,us,42.25,-75.83,1580007321,35.01,90,99,6.93
karaul,ru,56.0,8.13,1580007321,44.01,100,93,6.93
waipawa,nz,7.98,49.82,1580007322,78.76,9,80,20.2
misratah,ly,61.95,159.23,1580007322,15.19,100,87,21.16
rosa zarate,ec,10.57,72.64,1580007322,78.8,20,83,2.28
grand gaube,mu,15.74,-96.47,1580007310,80.6,40,78,6.38
saint george,bm,34.64,-120.46,1580007323,59.0,90,93,8.05
ust-barguzin,ru,49.1,16.38,1580007323,32.0,90,92,4.7
alexandria,eg,18.22,-63.06,1580007324,78.01,75,83,3.36
pontianak,id,47.79,-64.94,1580007141,16.0,1,84,2.24
dudinka,ru,41.59,9.28,1580007324,48.2,100,93,4.7
juifang,tw,17.02,54.09,1580007202,77.0,75,78,3.36
upernavik,gl,34.48,41.91,1580007325,41.49,0,71,8.68
hualmay,pe,-33.83,148.68,1580007325,81.0,0,61,1.99
caxito,ao,-14.78,24.8,1580007325,61.2,0,97,4.45
diamantino,br,64.38,-173.3,1580007308,-5.44,0,69,3.4
araouane,ml,-21.67,-45.92,1580007326,60.8,0,89,2.08
pervomayskoye,ru,-18.37,21.85,1580007326,68.59,0,66,3.38
zhezkazgan,kz,69.22,-51.1,1580007203,8.6,92,46,10.29
port hardy,ca,16.78,94.73,1580007327,75.15,41,50,7.74
broome,au,-35.1,173.78,1580007327,82.99,5,72,8.01
hvide sande,dk,50.77,8.57,1580007327,34.0,90,100,4.7
eyl,so,38.52,-28.7,1580007327,54.21,99,74,5.59
evensk,ru,-34.2,142.15,1580007169,87.01,0,30,6.93
kavaratti,in,-35.33,-72.42,1580007223,63.21,0,67,5.7
pochutla,mx,51.32,42.77,1580007328,30.99,3,83,11.01
kegayli,uz,-33.7,-53.46,1580007328,65.59,3,80,5.46
wulanhaote,cn,-33.01,17.94,1580007329,59.0,83,93,8.05
lompoc,us,18.47,120.58,1580007329,80.6,75,88,4.7
ivancice,cz,47.53,25.4,1580007329,24.22,6,95,4.5
the valley,ai,41.0,-115.5,1580007329,39.2,20,69,2.71
caraquet,ca,-13.88,167.55,1580007330,83.3,63,75,10.25
porto-vecchio,fr,43.27,-7.54,1580007330,48.0,35,93,8.05
salalah,om,21.46,-71.14,1580007222,76.39,0,74,12.33
rawah,iq,13.08,109.3,1580007330,77.04,100,79,3.53
cowra,au,-3.33,128.92,1580007330,83.23,100,75,4.23
kaoma,zm,-37.83,140.77,1580007331,68.0,90,64,14.99
provideniya,ru,20.96,-75.72,1580007209,68.0,0,94,1.12
machado,br,18.39,42.45,1580007331,46.4,20,70,6.93
shakawe,bw,5.21,103.21,1580007331,80.6,40,83,2.24
ilulissat,gl,29.13,15.95,1580007332,55.09,80,31,3.76
pathein,mm,-34.92,-57.95,1580007332,81.0,55,54,10.29
kaeo,nz,31.33,-109.95,1580007332,55.0,1,62,6.93
gladenbach,de,68.82,-51.19,1580007332,8.6,92,46,10.29
ribeira grande,pt,20.87,-90.4,1580007333,73.42,0,79,21.14
mildura,au,33.37,-112.58,1580007189,64.99,1,42,5.82
constitucion,mx,-6.43,-43.98,1580007333,73.24,100,82,1.59
kamenka,ru,-46.13,167.68,1580007333,65.64,98,51,4.76
chuy,uy,-1.95,18.27,1580007334,70.93,39,43,1.3
saldanha,za,-3.9,-38.39,1580007064,86.0,20,79,9.17
davila,ph,43.52,-8.15,1580007334,48.0,52,93,8.05
fundu moldovei,ro,-8.01,-34.86,1580007237,82.4,40,78,8.05
elko,us,54.72,135.31,1580007335,-4.05,0,73,19.35
sola,vu,59.62,52.47,1580007335,9.88,100,96,3.67
bereda,so,-45.42,167.72,1580007335,63.37,100,79,7.38
cockburn town,tc,67.1,15.39,1580007335,30.99,100,68,23.04
tuy hoa,vn,-28.87,153.57,1580007286,87.01,75,65,17.22
amahai,id,7.7,28.0,1580007336,64.85,100,20,5.93
mount gambier,au,26.45,-81.95,1580007336,60.8,1,87,12.26
banes,cu,60.35,59.99,1580007336,0.9,100,97,3.38
faya,td,-19.55,169.27,1580007337,78.8,75,83,5.82
marang,my,-40.96,175.66,1580007337,78.01,0,69,3.0
hun,ly,-7.63,109.25,1580007337,88.03,22,58,3.76
la plata,ar,-16.48,-151.75,1580007338,83.16,62,72,8.79
naco,mx,26.89,88.07,1580007338,44.58,14,78,2.91
qasigiannguit,gl,60.05,69.9,1580007338,-7.06,97,98,5.61
celestun,mx,-7.91,39.67,1580007338,78.33,100,86,4.94
buckeye,us,33.64,42.83,1580007338,44.6,0,67,10.63
paraibano,br,11.68,10.19,1580007339,55.06,0,26,8.66
tuatapere,nz,6.8,124.02,1580007339,80.11,8,80,6.04
inongo,cd,29.65,-82.32,1580007339,51.01,1,75,9.17
aquiraz,br,38.5,102.17,1580007340,23.67,10,44,5.32
naron,es,19.22,-104.7,1580007340,77.0,5,78,5.82
olinda,br,64.9,45.76,1580007341,-4.61,86,98,2.89
chumikan,ru,15.44,119.9,1580007341,81.1,93,69,5.79
rudnichnyy,ru,40.43,71.72,1580007341,37.4,75,86,4.7
te anau,nz,44.82,33.6,1580007341,44.87,18,60,8.55
rognan,no,-24.83,16.98,1580007341,51.37,0,61,3.44
ballina,au,-14.27,50.17,1580007342,71.71,96,96,2.01
waw,sd,32.07,118.81,1580007342,46.99,90,100,6.71
fort myers beach,us,60.92,-46.05,1580007210,12.2,96,72,5.82
cheremukhovo,ru,47.13,10.56,1580007343,34.0,20,86,2.24
isangel,vu,43.4,3.7,1580007178,55.4,100,93,19.46
masterton,nz,-25.17,45.05,1580007343,67.44,0,85,10.22
kazalinsk,kz,20.15,92.9,1580007192,63.48,0,50,6.6
kroya,id,27.32,-112.28,1580007344,60.96,0,49,0.92
faanui,pf,-41.87,-73.82,1580007344,59.0,76,87,4.7
birin,dz,69.3,139.9,1580007344,-40.94,62,100,0.72
gornopravdinsk,ru,48.77,-80.68,1580007344,32.0,90,98,3.36
kilindoni,tz,44.04,39.15,1580007345,46.98,100,73,28.07
hit,iq,30.63,117.85,1580007345,39.63,100,97,3.62
azare,ng,31.4,30.42,1580007345,50.0,40,87,3.36
hihifo,to,4.93,-52.33,1580007345,75.2,90,94,9.17
gadung,ph,42.03,-8.16,1580007345,51.01,75,100,6.93
gainesville,us,-31.43,152.92,1580007346,91.99,32,52,13.87
jinchang,cn,-20.73,139.5,1580007346,80.6,75,88,5.82
san patricio,mx,1.86,9.77,1580007346,77.0,20,100,1.88
attawapiskat,ca,59.96,40.19,1580007347,14.43,100,92,8.57
leshukonskoye,ru,-33.04,-71.63,1580007244,62.6,62,93,3.36
palauig,ph,44.07,10.48,1580007347,48.99,75,100,1.12
komsomolskiy,ru,40.08,-105.35,1580007176,41.0,1,80,3.36
uhlove,ua,-1.2,-46.02,1580007348,82.24,100,81,19.93
maltahohe,na,35.22,52.34,1580007348,36.55,0,63,6.87
sambava,mg,-2.02,147.27,1580007246,84.22,85,71,6.04
xuanwu,cn,25.52,90.22,1580007348,63.28,0,55,3.38
barentsburg,sj,-20.41,57.7,1580007195,77.0,75,78,11.41
narsaq,gl,45.02,-93.22,1580007349,28.99,1,86,3.36
landeck,at,20.7,-105.2,1580007084,72.0,75,94,3.36
sete,fr,35.13,140.3,1580007349,42.01,75,86,3.36
beloha,mg,42.44,-123.33,1580007350,50.0,90,93,2.66
akyab,mm,70.37,31.11,1580007350,17.6,100,85,29.97
santa rosalia,mx,39.85,3.12,1580007183,48.99,99,87,5.82
ancud,cl,10.31,119.01,1580007350,87.8,20,66,6.93
deputatskiy,ru,26.82,92.65,1580007350,58.03,0,50,3.53
iroquois falls,ca,42.25,-2.5,1580007325,44.6,90,100,4.7
shepsi,ru,11.52,7.31,1580007351,54.3,0,23,11.03
rongcheng,cn,-6.64,-51.99,1580007351,72.57,100,95,1.21
rosetta,eg,-3.73,-40.99,1580007352,73.6,100,96,1.21
cayenne,gf,-10.17,123.58,1580007352,86.0,20,79,2.24
vila,vu,13.73,100.22,1580007352,88.0,20,66,9.17
port macquarie,au,-6.53,-64.38,1580007353,75.72,100,89,2.48
mount isa,au,38.38,-4.85,1580007353,50.0,75,93,3.36
bata,gq,63.84,-22.43,1580007353,35.6,90,72,13.87
kharovsk,ru,53.52,-2.49,1580007354,46.0,90,93,6.93
valparaiso,cl,46.43,26.4,1580007354,28.99,25,92,4.7
blensong,ph,33.73,135.98,1580007354,48.2,75,100,5.82
barga,it,-22.82,47.83,1580007354,77.47,0,56,6.46
boulder,us,62.16,-7.17,1580007355,44.6,100,93,19.46
carutapera,br,26.33,43.98,1580007355,37.4,0,100,6.93
garmsar,ir,34.26,108.93,1580007355,41.0,90,86,13.42
lorengau,pg,9.97,98.63,1580007356,80.6,41,74,2.24
tura,ru,66.15,-65.71,1580007189,-36.89,100,99,2.98
mahebourg,mu,33.33,-105.67,1580007356,48.2,1,44,6.93
saint anthony,ca,60.82,-115.8,1580007357,14.0,90,85,6.93
ixtapa,mx,49.86,26.09,1580007357,31.35,100,82,8.01
katsuura,jp,56.83,95.23,1580007357,19.44,100,90,5.44
grants pass,us,33.17,-86.25,1580007357,41.0,1,100,4.54
vardo,no,39.4,121.97,1580007358,53.01,100,40,6.71
alcudia,es,29.45,55.68,1580007358,36.99,33,57,5.73
caruray,ph,-34.48,-54.33,1580007358,60.19,0,78,4.52
rangapara,in,22.82,108.32,1580007359,50.0,40,71,11.18
la rioja,ar,1.17,108.97,1580007359,83.23,98,73,4.05
funtua,ng,59.63,112.74,1580007359,22.46,100,79,15.17
tumannyy,ru,64.5,-165.41,1580007359,-16.6,1,82,8.72
sao felix do xingu,br,22.57,59.53,1580007360,67.05,7,83,5.73
tiangua,br,48.13,-78.13,1580007062,32.0,90,97,10.29
kupang,id,66.94,-53.67,1580007252,4.08,100,94,5.99
bolungarvik,is,27.04,14.43,1580007360,54.81,48,24,9.19
sam phran,th,-20.22,-70.14,1580007194,73.4,90,88,2.24
canutama,br,4.14,96.13,1580007361,81.23,100,79,3.94
marcona,pe,-8.42,20.74,1580007361,67.53,100,92,4.05
pozoblanco,es,20.71,-78.0,1580007362,74.95,0,75,15.64
grindavik,is,-15.23,-59.34,1580007362,74.73,82,75,1.88
atherton,au,54.05,122.9,1580007362,-8.93,0,88,0.87
asau,tv,53.86,120.88,1580007362,-0.92,25,86,2.86
shingu,jp,1.74,98.78,1580007228,86.38,0,63,1.19
farafangana,mg,-11.09,-43.14,1580007357,77.76,99,79,5.73
grand river south east,mu,54.48,53.47,1580007363,11.79,39,98,1.61
vestmanna,fo,64.89,-23.71,1580007364,31.23,77,82,15.55
buraydah,sa,39.18,-84.53,1580007364,34.0,90,86,11.41
xian,cn,37.46,118.49,1580007364,38.55,100,51,8.55
fort saint john,ca,42.88,26.45,1580007364,24.8,0,100,1.12
ranong,th,44.51,50.26,1580007365,36.39,77,84,20.38
pangnirtung,ca,34.39,67.02,1580007365,-4.0,0,77,1.88
ruidoso,us,4.47,97.97,1580007365,84.34,100,60,4.65
hay river,ca,-22.22,30.0,1580007365,74.71,0,57,4.9
lanivtsi,ua,25.02,37.27,1580007366,48.34,0,32,12.75
dzerzhinskoye,ru,28.17,94.77,1580007366,52.05,0,48,3.91
sylacauga,us,-20.1,146.27,1580007367,86.95,100,57,8.32
pulandian,cn,-7.94,110.25,1580007367,85.82,2,65,8.81
rungata,ki,-40.85,172.8,1580007367,82.0,3,78,8.99
sirjan,ir,-43.53,172.63,1580007368,82.99,0,64,13.87
rocha,uy,60.34,102.28,1580007368,18.86,62,80,14.85
nanning,cn,-23.86,35.38,1580007368,77.94,22,80,9.93
pemangkat,id,16.86,-99.89,1580007110,78.8,20,74,4.7
peleduy,ru,-26.65,15.16,1580007369,66.2,0,88,11.41
nome,us,61.67,96.37,1580007369,14.97,100,85,12.57
sur,om,16.89,-24.98,1580007369,69.8,75,88,20.8
malartic,ca,37.24,-5.11,1580007370,50.0,75,93,4.7
sisimiut,gl,34.41,-119.86,1580007370,57.99,1,93,6.93
sabha,ly,-30.74,30.45,1580007370,69.04,2,73,3.31
iquique,cl,53.41,21.93,1580007371,35.6,90,93,6.93
meulaboh,id,-2.6,-43.46,1580007371,78.71,90,91,5.03
lucapa,ao,5.88,-55.08,1580007371,77.0,40,88,4.7
santa cruz del sur,cu,49.13,-102.98,1580007372,34.0,90,100,8.05
pontes e lacerda,br,-3.8,102.27,1580007286,87.44,100,58,2.1
urusha,ru,31.34,69.45,1580007372,38.01,0,79,0.72
amazar,ru,-45.58,-72.07,1580007373,59.0,5,51,5.82
sibolga,id,56.89,21.19,1580007210,41.0,33,100,14.99
barra,br,44.37,-100.35,1580007291,28.0,1,92,3.36
safwah,sa,31.61,34.76,1580007373,45.0,0,86,2.24
oktyabrskiy,ru,-32.95,151.67,1580007374,102.0,40,37,11.41
olafsvik,is,-28.55,16.43,1580007374,65.26,97,81,10.2
hamilton,bm,18.93,-103.97,1580007374,77.0,40,88,2.15
dongying,cn,12.48,-16.55,1580007375,70.66,50,50,7.05
kotel,bg,41.14,-73.36,1580007375,48.0,90,93,10.29
fort-shevchenko,kz,61.32,23.75,1580007375,34.0,90,80,10.29
panjab,af,43.6,73.76,1580007376,21.63,100,96,5.28
langsa,id,-21.34,55.48,1580007211,73.4,90,83,9.17
beitbridge,zw,28.37,129.48,1580007215,71.6,75,94,8.05
jomalig,ph,66.42,112.4,1580007376,-27.4,100,74,6.71
umm lajj,sa,5.1,73.07,1580007308,81.61,100,70,7.23
tarudant,ma,69.65,18.96,1580007178,15.8,75,92,3.36
along,in,-41.17,146.35,1580007377,72.0,100,47,11.99
charters towers,au,-0.61,-47.36,1580007377,82.81,100,81,12.39
srandakan,id,-28.78,32.04,1580007378,77.38,1,81,26.22
takaka,nz,35.55,133.23,1580007378,51.8,75,57,5.82
christchurch,nz,14.9,-24.5,1580007378,73.94,21,63,18.75
formoso do araguaia,br,60.55,-151.26,1580007378,9.0,1,59,9.17
vanavara,ru,33.35,64.42,1580007379,9.09,6,52,4.59
inhambane,mz,-8.77,160.7,1580007379,83.89,0,73,4.07
acapulco,mx,-32.72,152.15,1580007379,102.0,40,37,11.41
luderitz,na,31.42,-103.49,1580007379,59.0,1,24,6.93
baykit,ru,60.73,77.59,1580007367,-0.4,75,84,6.71
mindelo,cv,44.85,-93.79,1580007380,28.99,90,73,5.79
osuna,es,-29.68,-53.81,1580007380,73.4,0,69,1.12
khonuu,ru,-2.39,40.44,1580007380,76.8,100,93,4.56
isla vista,us,0.2,30.0,1580007381,70.74,100,49,1.88
port shepstone,za,-34.05,23.37,1580007381,64.22,100,87,17.16
kolno,pl,-28.77,114.6,1580007381,82.4,15,58,12.75
vaitupu,wf,21.44,-157.84,1580007381,82.4,20,65,9.17
humberto de campos,br,-26.49,-49.07,1580007382,69.8,16,94,2.24
nieuw amsterdam,sr,65.85,44.24,1580007382,0.05,100,95,2.89
estevan,ca,-2.57,150.8,1580007237,84.87,48,72,11.7
bengkulu,id,56.55,27.72,1580007383,30.85,39,91,8.39
zhob,pk,-3.22,40.12,1580007383,76.05,100,91,3.44
viligili,mv,51.15,37.89,1580007383,28.78,34,90,12.03
coihaique,cl,12.3,78.8,1580007384,71.67,38,58,0.96
pavilosta,lv,68.05,39.51,1580007370,1.87,100,98,10.38
pierre,us,15.33,38.93,1580007384,50.77,65,79,2.68
gat,ly,25.38,97.4,1580007384,59.36,0,47,3.31
charlestown,kn,-18.06,13.84,1580007385,66.04,6,41,4.88
oranjemund,na,60.87,60.42,1580007386,1.06,100,97,3.4
armeria,mx,55.07,51.23,1580007386,13.96,41,93,2.51
oussouye,sn,38.89,-76.51,1580007387,45.0,90,87,10.02
burica,pa,-34.58,150.86,1580007387,98.01,40,44,11.41
westport,ie,53.45,89.53,1580007387,17.19,100,96,5.3
lempaala,fi,38.44,57.43,1580007388,29.28,0,80,9.48
shu,kz,-4.76,11.86,1580007388,81.21,97,85,7.65
saint-pierre,pm,14.1,-1.63,1580007388,69.21,97,10,9.4
naze,jp,32.77,-108.28,1580007293,44.01,1,52,11.41
udachnyy,ru,-25.4,-70.48,1580007389,67.77,0,83,1.72
eydhafushi,mv,50.23,-63.6,1580007361,15.8,90,85,2.24
tromso,no,49.75,-77.63,1580007389,28.4,90,92,4.7
devonport,au,37.46,-122.43,1580007390,61.0,90,93,4.7
salinopolis,br,58.23,8.12,1580007390,45.0,100,93,6.93
richards bay,za,-19.98,57.61,1580007391,77.0,75,78,11.41
sakaiminato,jp,-43.3,-65.1,1580007391,72.3,0,42,20.87
sao filipe,cv,51.05,142.27,1580007392,-0.63,7,80,4.59
kenai,us,2.04,45.34,1580007378,81.23,100,82,23.13
taywarah,af,34.02,-84.36,1580007392,39.2,1,73,6.93
auki,sb,-22.28,166.46,1580007306,91.4,75,49,14.99
nelson bay,au,-23.68,22.79,1580007393,71.2,6,64,3.38
pecos,us,18.18,-76.46,1580007393,77.0,75,78,10.29
strezhevoy,ru,-9.17,-60.63,1580007263,74.91,100,97,0.51
waconia,us,42.95,72.76,1580007393,20.95,100,97,4.36
santa maria,cv,53.57,52.8,1580007394,21.07,100,95,3.38
witu,ke,66.0,111.5,1580007188,-27.4,100,74,6.71
kilembe,ug,61.99,-49.67,1580007394,18.12,86,64,23.8
plettenberg bay,za,21.88,-82.8,1580007394,73.13,0,83,18.48
geraldton,au,18.42,84.05,1580007395,74.75,59,71,3.18
ahuimanu,us,24.83,-104.83,1580007395,46.72,100,77,0.76
jaragua do sul,br,60.9,131.96,1580007378,-30.8,0,93,1.1
mezen,ru,33.77,120.25,1580007395,43.92,100,81,17.25
kavieng,pg,-12.02,17.48,1580007396,63.91,100,97,2.24
velyka kisnytsya,ua,31.92,35.2,1580007396,45.0,0,86,2.24
ludza,lv,36.1,0.42,1580007396,47.77,33,77,1.88
malindi,ke,42.8,93.45,1580007396,11.79,0,62,1.41
novikovo,ru,22.68,-3.98,1580007397,67.41,10,26,4.63
chengam,in,33.14,-117.17,1580007352,62.01,90,87,3.36
ostrovnoy,ru,26.54,-77.06,1580007328,71.67,39,79,13.62
asmara,er,11.03,20.28,1580007397,56.32,36,21,6.35
myitkyina,mm,67.45,153.68,1580007398,-23.49,100,92,2.33
opuwo,na,1.33,-74.84,1580007398,75.79,100,85,0.92
umzimvubu,za,32.61,35.33,1580007398,43.32,0,75,2.66
polunochnoye,ru,-20.44,-53.76,1580007398,70.88,0,76,2.35
kollumerland,nl,38.47,106.27,1580007399,31.51,89,61,3.96
novosheshminsk,ru,-34.65,-58.62,1580007399,81.0,0,54,10.29
mayo,ca,49.01,24.37,1580007399,28.99,83,75,1.36
flinders,au,58.45,92.17,1580007399,11.12,88,94,5.46
biskamzha,ru,42.91,73.27,1580007400,20.53,92,96,4.92
makung,tw,28.66,-17.92,1580007107,60.8,29,55,6.93
aflu,dz,51.23,-58.65,1580007400,14.79,40,79,10.8
baherden,tm,3.48,34.15,1580007400,68.07,81,67,4.52
loandjili,cg,21.12,70.12,1580007382,70.77,0,52,11.92
djibo,bf,19.91,109.69,1580007401,62.2,96,85,17.81
silver city,us,51.38,1.39,1580007401,46.0,90,100,10.29
taltal,cl,25.7,100.18,1580007401,48.34,0,40,2.66
havre-saint-pierre,ca,1.33,172.98,1580007402,89.6,40,70,5.82
matagami,ca,-9.01,-35.22,1580007185,81.54,40,84,15.19
half moon bay,us,0.52,25.2,1580007402,68.49,75,50,0.89
tveit,no,-5.55,150.14,1580007402,84.18,85,81,3.58
cap malheureux,mu,-8.14,159.59,1580007276,88.57,0,59,2.08
rawson,ar,30.3,111.5,1580007403,42.01,75,73,9.42
mgachi,ru,62.58,6.13,1580007203,46.4,100,81,18.34
mogadishu,so,33.25,75.25,1580007403,32.38,0,83,4.29
roswell,us,50.9,142.16,1580007404,-4.18,0,87,13.02
noumea,nc,12.78,45.04,1580007157,76.86,69,77,7.23
kang,bw,57.21,41.93,1580007404,23.58,98,92,12.3
port antonio,jm,-17.73,-149.15,1580007404,86.0,40,70,8.05
aripuana,br,50.03,-66.87,1580007405,17.6,75,67,5.82
lugovoy,ru,3.87,-67.92,1580007405,77.36,63,87,2.37
asekeyevo,ru,46.54,138.33,1580007405,15.42,100,52,6.93
aykhal,ru,3.38,-59.8,1580007405,82.09,100,59,12.71
paamiut,gl,-15.82,-50.61,1580007406,70.21,91,98,2.68
nueva gerona,cu,14.4,46.47,1580007227,60.89,7,61,9.31
narasannapeta,in,65.42,-52.9,1580007406,13.89,100,85,13.18
durango,us,39.7,119.15,1580007406,48.99,40,52,9.93
amga,ru,-3.94,122.5,1580007407,88.68,22,65,4.12
hede,cn,20.93,-17.03,1580007364,64.4,100,68,20.8
camacupa,ao,3.04,29.54,1580007407,65.1,100,43,2.1
palestine,us,34.93,43.49,1580007407,41.83,0,64,7.58
sidi ali,dz,-7.61,15.06,1580007196,66.9,100,93,1.99
hami,cn,4.71,-74.23,1580007408,59.0,75,87,3.36
taoudenni,ml,63.76,121.62,1580007408,-27.17,93,96,10.42
san marcos,mx,36.62,101.77,1580007408,18.23,0,45,5.37
marsh harbour,bs,-6.88,112.38,1580007409,87.46,18,64,4.07
am timan,td,28.92,80.33,1580007409,52.57,0,72,0.96
srednekolymsk,ru,24.47,54.37,1580007409,64.4,20,63,13.87
cartagena del chaira,co,25.42,-101.0,1580007325,62.6,75,55,3.74
sulam,il,-19.11,-51.73,1580007410,72.3,69,90,4.07
ribas do rio pardo,br,27.63,93.83,1580007410,52.14,0,48,1.79
yinchuan,cn,49.63,41.73,1580007410,32.36,100,89,16.04
moron,mn,53.73,119.77,1580007410,-2.97,64,89,2.48
kalush,ua,29.03,21.55,1580007317,50.99,43,46,9.4
yeniseysk,ru,51.47,140.78,1580007411,-2.15,49,76,6.8
oytal,kz,51.16,54.99,1580007411,30.09,100,96,19.22
los llanos de aridane,es,-3.37,135.48,1580007310,88.45,52,61,5.93
saint-augustin,ca,53.92,-122.75,1580007412,33.8,1,74,4.7
kaabong,ug,-11.37,-38.33,1580007412,75.9,86,88,8.79
mangrol,in,-1.57,9.26,1580007412,75.56,2,95,1.48
lingao,cn,-3.41,-39.03,1580007412,84.2,20,79,9.17
margate,za,46.41,-105.84,1580007413,37.4,40,64,11.36
